time [s],alt_lpf [m],sensor_roll,sensor_pitch,sensor_yaw,static_reg_roll,static_reg_pitch,static_reg_yaw,boot_roll,boot_pitch,boot_yaw
1703956764,396.2291615,-87.08628454,-16.54181991,147.5774171,-92.75481387,-16.64967526,95.0133967,106.6202758,-7.613890355,-65.25410475
1703956764,396.2220441,-87.66685129,-16.36309356,146.1452607,-92.75481387,-16.64967526,95.0133967,106.094737,-7.101354847,-65.53621641
1703956764,396.2149978,-88.33916434,-16.20109858,144.6569477,-92.75481387,-16.64967526,95.0133967,105.3721598,-6.596175716,-66.05021949
1703956764,396.2080261,-89.02302051,-16.0304588,143.1738173,-92.75481387,-16.64967526,95.0133967,104.5059715,-6.099772704,-66.68069811
1703956764,396.2011319,-89.5693271,-15.84763019,141.7871157,-92.75481387,-16.64967526,95.0133967,103.874954,-5.605632309,-67.02399062
1703956764,396.1943182,-90.04036064,-15.66216065,140.3797405,-92.75481387,-16.64967526,95.0133967,103.5191554,-5.078165919,-67.06934704
1703956764,396.1875876,-90.47618804,-15.47158432,138.9919047,-92.75481387,-16.64967526,95.0133967,103.2788981,-4.549905067,-66.97762067
1703956764,396.180943,-90.82149354,-15.29839422,137.7091019,-92.75481387,-16.64967526,95.0133967,103.3968482,-4.043836564,-66.54657548
1703956764,396.1743868,-91.19671584,-15.15600848,136.4407858,-92.75481387,-16.64967526,95.0133967,103.5607132,-3.558035504,-66.12812612
1703956764,396.1679218,-91.55887471,-15.02559554,135.1785383,-92.75481387,-16.64967526,95.0133967,103.9916529,-3.072741227,-65.46000664
1703956765,396.1615506,-91.82723925,-14.89561882,134.0431578,-92.75481387,-16.64967526,95.0133967,105.0133753,-2.618136858,-64.19098764
1703956765,396.1552754,-92.03004024,-14.80167976,132.9954231,-92.75481387,-16.64967526,95.0133967,106.9919789,-2.18752851,-62.02933717
1703956765,396.1490985,-92.39597354,-14.75345465,131.8364337,-92.75481387,-16.64967526,95.0133967,108.869094,-1.762022392,-60.06793635
1703956765,396.1430222,-92.80853502,-14.74651387,130.6887474,-92.75481387,-16.64967526,95.0133967,111.3106825,-1.360169993,-57.6236019
1703956765,396.1370487,-93.30208225,-14.72162089,129.51439,-92.75481387,-16.64967526,95.0133967,114.0118022,-0.972038229,-54.88446723
1703956765,396.1311806,-93.80416318,-14.6984158,128.3471827,-92.75481387,-16.64967526,95.0133967,119.7641775,-0.594302991,-49.09300883
1703956765,396.1254207,-94.31548948,-14.696365,127.1671337,-92.75481387,-16.64967526,95.0133967,144.0697767,-0.240292086,-24.7856242
1703956765,396.119772,-94.82607539,-14.70393131,126.0180285,-92.75481387,-16.64967526,95.0133967,-113.1617631,-0.238123793,77.96984292
1703956765,396.1142377,-95.30821654,-14.69673895,124.9513114,-92.75481387,-16.64967526,95.0133967,-89.68139297,-0.549281382,101.4706789
1703956765,396.108821,-95.73179886,-14.69889059,123.9501452,-92.75481387,-16.64967526,95.0133967,-84.39372097,-0.875770421,106.7648957
1703956765,396.1035248,-96.23007,-14.70432002,122.8978455,-92.75481387,-16.64967526,95.0133967,-81.06247347,-1.202836571,110.0988026
1703956765,396.0983518,-96.71155647,-14.71031496,121.8394502,-92.75481387,-16.64967526,95.0133967,-79.4007818,-1.541232642,111.7672088
1703956765,396.093305,-97.14093922,-14.75528919,120.8197312,-92.75481387,-16.64967526,95.0133967,-78.69863763,-1.881748112,112.4024343
1703956765,396.0883869,-97.5842899,-14.8132439,119.7913209,-92.75481387,-16.64967526,95.0133967,-78.0625227,-2.222622624,112.949482
1703956765,396.0835999,-97.87374273,-14.80997242,118.9069701,-92.75481387,-16.64967526,95.0133967,-78.43977957,-2.546193852,112.6065238
1703956765,396.0789459,-98.20128742,-14.82066408,117.9948277,-92.75481387,-16.64967526,95.0133967,-78.52089681,-2.870313263,112.53462
1703956765,396.0744266,-98.59006786,-14.83834824,117.0271595,-92.75481387,-16.64967526,95.0133967,-78.31686772,-3.199886548,112.7382443
1703956765,396.0700435,-98.96942275,-14.83309463,116.0542715,-92.75481387,-16.64967526,95.0133967,-78.25564242,-3.534059192,112.8484479
1703956765,396.0657976,-99.37168903,-14.84779523,115.050515,-92.75481387,-16.64967526,95.0133967,-78.11672036,-3.876135999,113.001088
1703956765,396.0616896,-99.89775198,-14.86497638,113.9594391,-92.75481387,-16.64967526,95.0133967,-77.5599114,-4.216983956,113.5748608
1703956765,396.0577199,-100.300699,-14.84266394,112.9730935,-92.75481387,-16.64967526,95.0133967,-77.53750577,-4.547828886,113.6917423
1703956765,396.0538884,-100.658833,-14.83579554,112.0021278,-92.75481387,-16.64967526,95.0133967,-77.66309657,-4.887849917,113.6319082
1703956765,396.0501944,-101.0040943,-14.82468039,110.9857315,-92.75481387,-16.64967526,95.0133967,-77.9102267,-5.253665078,113.4641475
1703956765,396.0466373,-101.3438628,-14.78251377,109.9327209,-92.75481387,-16.64967526,95.0133967,-78.27555567,-5.636112179,113.2447927
1703956765,396.043216,-101.6777024,-14.72141062,108.8943476,-92.75481387,-16.64967526,95.0133967,-78.65873757,-6.011495357,113.0471963
1703956765,396.0399291,-102.0916193,-14.65608188,107.7610418,-92.75481387,-16.64967526,95.0133967,-78.89813123,-6.402973159,113.0123155
1703956765,396.0367752,-102.4796116,-14.61067812,106.6547944,-92.75481387,-16.64967526,95.0133967,-79.13838539,-6.791920866,112.9383526
1703956765,396.0337522,-102.9271578,-14.57041175,105.4821838,-92.75481387,-16.64967526,95.0133967,-79.27034916,-7.191338999,112.9723402
1703956765,396.0308579,-103.4116212,-14.53258434,104.3216313,-92.75481387,-16.64967526,95.0133967,-79.2954713,-7.571264142,113.1135021
1703956765,396.0280896,-103.9691345,-14.4996686,103.0671341,-92.75481387,-16.64967526,95.0133967,-79.24000951,-7.969942836,113.339801
1703956765,396.0254449,-104.439818,-14.44706513,101.8752367,-92.75481387,-16.64967526,95.0133967,-79.40158516,-8.3666227,113.3845082
1703956765,396.0229209,-104.8606321,-14.37918196,100.7156541,-92.75481387,-16.64967526,95.0133967,-79.69016437,-8.762968071,113.3313507
1703956765,396.0205152,-105.2393859,-14.30316698,99.59809054,-92.75481387,-16.64967526,95.0133967,-80.05079354,-9.152448985,113.2200356
1703956765,396.0182248,-105.6095603,-14.22816837,98.47041381,-92.75481387,-16.64967526,95.0133967,-80.42991654,-9.54925349,113.0913816
1703956765,396.0160472,-105.8810752,-14.14971542,97.4366174,-92.75481387,-16.64967526,95.0133967,-80.92528634,-9.936024055,112.8423015
1703956765,396.0139795,-106.1306195,-14.0793361,96.46018541,-92.75481387,-16.64967526,95.0133967,-81.38170879,-10.30407605,112.6124597
1703956765,396.0120196,-106.4095814,-13.9977285,95.5025701,-92.75481387,-16.64967526,95.0133967,-81.78686007,-10.65010468,112.4580468
1703956765,396.010165,-106.6303871,-13.91461494,94.61619095,-92.75481387,-16.64967526,95.0133967,-82.23682628,-10.98291658,112.2532857
1703956765,396.0084139,-106.7444977,-13.85330563,93.85980542,-92.75481387,-16.64967526,95.0133967,-82.70893516,-11.2962945,111.966676
1703956765,396.0067643,-106.9619498,-13.80869986,93.0485622,-92.75481387,-16.64967526,95.0133967,-82.99957647,-11.59935704,111.8428074
1703956765,396.0052144,-107.156905,-13.74665691,92.26509775,-92.75481387,-16.64967526,95.0133967,-83.34415201,-11.89475482,111.6955719
1703956765,396.0037622,-107.256687,-13.70096032,91.58497046,-92.75481387,-16.64967526,95.0133967,-83.71941667,-12.17900115,111.4704985
1703956765,396.0024055,-107.3255013,-13.67511915,90.92058788,-92.75481387,-16.64967526,95.0133967,-84.0704237,-12.47069152,111.2279681
1703956765,396.0011424,-107.3153781,-13.63719688,90.35803329,-92.75481387,-16.64967526,95.0133967,-84.49070467,-12.74205484,110.9241523
1703956765,395.9999711,-107.3077645,-13.59318909,89.84817873,-92.75481387,-16.64967526,95.0133967,-84.88129482,-12.9863001,110.6576599
1703956765,395.9988904,-107.2714419,-13.57111948,89.43101529,-92.75481387,-16.64967526,95.0133967,-85.1981328,-13.20028211,110.4127586
1703956765,395.9978988,-107.2895654,-13.59461603,88.92872035,-92.75481387,-16.64967526,95.0133967,-85.37043436,-13.44122309,110.2373087
1703956765,395.9969951,-107.1967213,-13.61245836,88.51086916,-92.75481387,-16.64967526,95.0133967,-85.6452912,-13.68421257,109.9524389
1703956765,395.9961782,-107.0323567,-13.60918427,88.24423871,-92.75481387,-16.64967526,95.0133967,-85.97643428,-13.87908385,109.6321467
1703956765,395.9954475,-106.785342,-13.61218914,88.15856114,-92.75481387,-16.64967526,95.0133967,-86.30047453,-14.01982266,109.2840107
1703956765,395.9948022,-106.6393728,-13.66540365,88.03727885,-92.75481387,-16.64967526,95.0133967,-86.39750028,-14.14490922,109.0796067
1703956765,395.9942418,-106.5395292,-13.72173431,87.8962506,-92.75481387,-16.64967526,95.0133967,-86.43974692,-14.26165821,108.9300623
1703956765,395.9937654,-106.4242393,-13.74893651,87.79067008,-92.75481387,-16.64967526,95.0133967,-86.55140876,-14.36325317,108.7623999
1703956765,395.9933724,-106.1955921,-13.80330098,87.88129479,-92.75481387,-16.64967526,95.0133967,-86.64587282,-14.41785343,108.5327079
1703956765,395.9930624,-105.9783717,-13.90437263,87.94280227,-92.75481387,-16.64967526,95.0133967,-86.63012042,-14.48823269,108.3267217
1703956765,395.9928351,-105.6299786,-13.9738115,88.13458738,-92.75481387,-16.64967526,95.0133967,-86.78442506,-14.54297158,107.9875269
1703956765,395.9926906,-105.3107506,-13.96434483,88.3546548,-92.75481387,-16.64967526,95.0133967,-87.07788567,-14.56217189,107.6624473
1703956765,395.9926293,-105.036032,-13.94303195,88.58944246,-92.75481387,-16.64967526,95.0133967,-87.34391464,-14.55508217,107.391888
1703956765,395.9926521,-104.5632792,-13.94432321,88.96529434,-92.75481387,-16.64967526,95.0133967,-87.72591607,-14.56196443,106.9319664
1703956765,395.9927599,-104.2706663,-13.95432524,89.18825518,-92.75481387,-16.64967526,95.0133967,-87.94546412,-14.57235891,106.6476791
1703956765,395.9929533,-104.0023489,-13.96503334,89.43312629,-92.75481387,-16.64967526,95.0133967,-88.13069383,-14.56228483,106.3977691
1703956765,395.9932331,-103.7689467,-13.97876418,89.6550924,-92.75481387,-16.64967526,95.0133967,-88.28007677,-14.54967899,106.1833055
1703956765,395.9935997,-103.4798772,-13.98161996,89.92353022,-92.75481387,-16.64967526,95.0133967,-88.50008812,-14.53589833,105.9111908
1703956765,395.9940537,-103.1441381,-14.00318545,90.25087522,-92.75481387,-16.64967526,95.0133967,-88.71224818,-14.51429127,105.6026301
1703956765,395.9945952,-102.8265629,-14.03414532,90.59147059,-92.75481387,-16.64967526,95.0133967,-88.88318367,-14.47969346,105.3185856
1703956765,395.9952243,-102.6285903,-14.05856575,90.83926998,-92.75481387,-16.64967526,95.0133967,-88.97015339,-14.44107103,105.1492328
1703956765,395.9959404,-102.4023354,-14.07003082,91.12036888,-92.75481387,-16.64967526,95.0133967,-89.10805797,-14.39642835,104.9499382
1703956765,395.9967433,-102.187023,-14.06099599,91.39669991,-92.75481387,-16.64967526,95.0133967,-89.28196366,-14.34781999,104.7567046
1703956765,395.9976325,-102.0133933,-14.07557836,91.65292987,-92.75481387,-16.64967526,95.0133967,-89.36718413,-14.29411158,104.6113341
1703956765,395.9986079,-101.8540078,-14.07087872,91.89109028,-92.75481387,-16.64967526,95.0133967,-89.485038,-14.24177292,104.4739653
1703956765,395.9996696,-101.7212679,-14.06079286,92.10709456,-92.75481387,-16.64967526,95.0133967,-89.59278292,-14.18894259,104.3613641
1703956765,396.0008179,-101.5900401,-14.03569233,92.34119234,-92.75481387,-16.64967526,95.0133967,-89.72734263,-14.12529268,104.250915
1703956765,396.0020531,-101.3823282,-14.02145254,92.64995538,-92.75481387,-16.64967526,95.0133967,-89.90297521,-14.05749599,104.0672858
1703956765,396.0033752,-101.1431584,-14.00332045,92.9984869,-92.75481387,-16.64967526,95.0133967,-90.11286648,-13.98294759,103.8527384
1703956765,396.0047844,-100.99492,-13.99114233,93.26980407,-92.75481387,-16.64967526,95.0133967,-90.23290529,-13.9093074,103.7290762
1703956765,396.006281,-100.8305279,-13.99032556,93.54501352,-92.75481387,-16.64967526,95.0133967,-90.34681134,-13.84145596,103.587866
1703956765,396.0078654,-100.6865317,-13.98906742,93.79755906,-92.75481387,-16.64967526,95.0133967,-90.44639258,-13.77632004,103.4651549
1703956765,396.0095377,-100.5862165,-13.9821008,94.01815345,-92.75481387,-16.64967526,95.0133967,-90.51909829,-13.70831662,103.3862499
1703956765,396.0112975,-100.4286615,-13.98303678,94.27060563,-92.75481387,-16.64967526,95.0133967,-90.63127044,-13.64916718,103.2460521
1703956765,396.0131442,-100.2590888,-14.0163496,94.52311262,-92.75481387,-16.64967526,95.0133967,-90.69052531,-13.59741768,103.0939103
1703956765,396.0150765,-100.0562729,-14.06320965,94.76764194,-92.75481387,-16.64967526,95.0133967,-90.76183659,-13.56455227,102.9007784
1703956765,396.0170932,-99.73448206,-14.05940547,95.12342581,-92.75481387,-16.64967526,95.0133967,-91.04706082,-13.52311053,102.5796969
1703956765,396.0191928,-99.4960953,-14.0244992,95.4379808,-92.75481387,-16.64967526,95.0133967,-91.31581048,-13.4651883,102.3464423
1703956765,396.0213745,-99.31768772,-14.03708469,95.72904354,-92.75481387,-16.64967526,95.0133967,-91.42870238,-13.39675149,102.180944
1703956765,396.0236371,-99.16779884,-14.07934207,95.94453204,-92.75481387,-16.64967526,95.0133967,-91.46637188,-13.3556892,102.0375923
1703956765,396.0259799,-99.00596976,-14.09493837,96.17035914,-92.75481387,-16.64967526,95.0133967,-91.5709043,-13.31290567,101.8793273
1703956765,396.0284018,-98.85915465,-14.10260059,96.4148669,-92.75481387,-16.64967526,95.0133967,-91.67326997,-13.25398871,101.7396225
1703956765,396.0309018,-98.81141087,-14.11763839,96.58635923,-92.75481387,-16.64967526,95.0133967,-91.66591991,-13.18972369,101.7057808
1703956765,396.0334788,-98.69513641,-14.15988244,96.79507307,-92.75481387,-16.64967526,95.0133967,-91.67402967,-13.13762178,101.5955364
1703956765,396.0361318,-98.50872842,-14.23581924,97.05929722,-92.75481387,-16.64967526,95.0133967,-91.68544723,-13.08951965,101.4072716
1703956765,396.0388591,-98.32910281,-14.27442969,97.32083219,-92.75481387,-16.64967526,95.0133967,-91.76702678,-13.03772506,101.2242789
1703956765,396.041659,-98.25766156,-14.33893302,97.49981108,-92.75481387,-16.64967526,95.0133967,-91.69170873,-12.98233224,101.1579289
1703956765,396.04453,-98.1290675,-14.39260776,97.70828554,-92.75481387,-16.64967526,95.0133967,-91.69884306,-12.93591903,101.0254981
1703956765,396.0474704,-98.05607422,-14.4313981,97.88865807,-92.75481387,-16.64967526,95.0133967,-91.67839881,-12.87901998,100.9556853
1703956765,396.0504787,-97.90917656,-14.51425236,98.12364182,-92.75481387,-16.64967526,95.0133967,-91.64906482,-12.82849539,100.7991685
1703956765,396.0535532,-97.78529376,-14.61564144,98.33235634,-92.75481387,-16.64967526,95.0133967,-91.56394578,-12.78203675,100.6641027
1703956765,396.0566924,-97.5850709,-14.66557932,98.59618432,-92.75481387,-16.64967526,95.0133967,-91.66162086,-12.73793841,100.4419048
1703956765,396.0598949,-97.4030123,-14.66076809,98.84678739,-92.75481387,-16.64967526,95.0133967,-91.84835636,-12.69020676,100.2425525
1703956765,396.0631591,-97.27055962,-14.70851344,99.05198734,-92.75481387,-16.64967526,95.0133967,-91.88464686,-12.64639761,100.0936545
1703956765,396.0664833,-97.12473146,-14.78508859,99.25684823,-92.75481387,-16.64967526,95.0133967,-91.88348764,-12.60964832,99.92358787
1703956766,396.0698654,-97.05556844,-14.78445755,99.41294557,-92.75481387,-16.64967526,95.0133967,-91.94788563,-12.56119842,99.85008499
1703956766,396.0733029,-97.00569226,-14.8012399,99.5750615,-92.75481387,-16.64967526,95.0133967,-91.95697079,-12.50224333,99.79809243
1703956766,396.076793,-97.04301711,-14.88038514,99.68315109,-92.75481387,-16.64967526,95.0133967,-91.75227978,-12.43564614,99.84244318
1703956766,396.0803325,-97.04599538,-14.96733989,99.80035265,-92.75481387,-16.64967526,95.0133967,-91.57165476,-12.37948707,99.84442426
1703956766,396.0839181,-96.98336977,-14.96518227,99.98147845,-92.75481387,-16.64967526,95.0133967,-91.63114962,-12.31559207,99.77858775
1703956766,396.0875463,-96.78784584,-14.93786733,100.246673,-92.75481387,-16.64967526,95.0133967,-91.88855715,-12.26536402,99.5538785
1703956766,396.0912135,-96.69887673,-14.97904202,100.4135061,-92.75481387,-16.64967526,95.0133967,-91.90167714,-12.2216134,99.44647208
1703956766,396.094915,-96.63884728,-15.02676712,100.5503021,-92.75481387,-16.64967526,95.0133967,-91.8719409,-12.18073367,99.3717213
1703956766,396.0986456,-96.62104821,-15.01004674,100.7146813,-92.75481387,-16.64967526,95.0133967,-91.9101821,-12.10558307,99.36035957
1703956766,396.1023996,-96.55705333,-14.99265003,100.9171212,-92.75481387,-16.64967526,95.0133967,-92.00228763,-12.03112925,99.2923544
1703956766,396.1061708,-96.514956,-15.04548955,101.0866163,-92.75481387,-16.64967526,95.0133967,-91.94091443,-11.96640925,99.23916533
1703956766,396.1099532,-96.54258649,-15.11769083,101.2193985,-92.75481387,-16.64967526,95.0133967,-91.76198332,-11.89097751,99.27016729
1703956766,396.1137405,-96.47657382,-15.10711415,101.4215183,-92.75481387,-16.64967526,95.0133967,-91.84616697,-11.81776011,99.19645738
1703956766,396.1175265,-96.24314425,-15.10673503,101.7211939,-92.75481387,-16.64967526,95.0133967,-92.11220009,-11.76772765,98.90735305
1703956766,396.1213051,-96.13062565,-15.14435915,101.9263876,-92.75481387,-16.64967526,95.0133967,-92.16852567,-11.71462935,98.76211049
1703956766,396.1250697,-96.0500326,-15.12605086,102.1374924,-92.75481387,-16.64967526,95.0133967,-92.28871271,-11.64304502,98.66744678
1703956766,396.1288133,-95.89608358,-15.0906649,102.4386976,-92.75481387,-16.64967526,95.0133967,-92.52718003,-11.55742943,98.48215083
1703956766,396.1325289,-95.72070077,-15.12312737,102.7206077,-92.75481387,-16.64967526,95.0133967,-92.67345539,-11.49295265,98.25222696
1703956766,396.1362093,-95.55883008,-15.15583055,102.9862535,-92.75481387,-16.64967526,95.0133967,-92.80666398,-11.43084892,98.03648079
1703956766,396.1398476,-95.40652265,-15.11960558,103.3022484,-92.75481387,-16.64967526,95.0133967,-93.0521278,-11.33757786,97.84686915
1703956766,396.1434369,-95.07825997,-15.05885856,103.7980384,-92.75481387,-16.64967526,95.0133967,-93.56057004,-11.23027996,97.4304366
1703956766,396.1469712,-94.87975085,-15.08993155,104.1728894,-92.75481387,-16.64967526,95.0133967,-93.75421472,-11.12994133,97.15443712
1703956766,396.1504446,-94.77727595,-15.12800503,104.4673804,-92.75481387,-16.64967526,95.0133967,-93.82024474,-11.02822922,96.99911228
1703956766,396.1538514,-94.69116443,-15.14016951,104.7786595,-92.75481387,-16.64967526,95.0133967,-93.91371164,-10.91041817,96.86924607
1703956766,396.1571857,-94.52280697,-15.14883828,105.1604723,-92.75481387,-16.64967526,95.0133967,-94.1233042,-10.79318865,96.62516539
1703956766,396.1604419,-94.29336957,-15.16331523,105.6033954,-92.75481387,-16.64967526,95.0133967,-94.41008313,-10.67241109,96.28871737
1703956766,396.1636147,-94.1564369,-15.11550822,106.0482656,-92.75481387,-16.64967526,95.0133967,-94.68952524,-10.50918981,96.09003165
1703956766,396.1666995,-94.14529297,-15.148956,106.410219,-92.75481387,-16.64967526,95.0133967,-94.67111154,-10.33383872,96.03236136
1703956766,396.1696922,-94.09883571,-15.22920498,106.7711789,-92.75481387,-16.64967526,95.0133967,-94.62513076,-10.17533853,95.90652747
1703956766,396.1725891,-94.05170439,-15.2876696,107.1490267,-92.75481387,-16.64967526,95.0133967,-94.62141436,-10.0082725,95.78221281
1703956766,396.1753867,-94.04095514,-15.33119613,107.5376466,-92.75481387,-16.64967526,95.0133967,-94.59699288,-9.819593819,95.70999138
1703956766,396.1780818,-93.89847951,-15.36091913,108.052338,-92.75481387,-16.64967526,95.0133967,-94.79545301,-9.625502244,95.4358345
1703956766,396.1806713,-93.8671258,-15.396078,108.515445,-92.75481387,-16.64967526,95.0133967,-94.83225685,-9.408526194,95.31748586
1703956766,396.183152,-93.98666786,-15.47710515,108.9138861,-92.75481387,-16.64967526,95.0133967,-94.57127248,-9.158395816,95.41027703
1703956766,396.1855213,-94.10510403,-15.59615523,109.3391404,-92.75481387,-16.64967526,95.0133967,-94.24725125,-8.89621307,95.48857458
1703956766,396.1877763,-94.06648577,-15.71258583,109.8570468,-92.75481387,-16.64967526,95.0133967,-94.18263061,-8.656429136,95.30646311
1703956766,396.1899143,-94.11203255,-15.82281382,110.3283937,-92.75481387,-16.64967526,95.0133967,-93.99336305,-8.403051879,95.26479194
1703956766,396.191933,-94.10941177,-15.90129754,110.8264056,-92.75481387,-16.64967526,95.0133967,-93.94064971,-8.156827963,95.14885416
1703956766,396.1938304,-94.03516997,-16.00669728,111.3593357,-92.75481387,-16.64967526,95.0133967,-93.98594927,-7.924849578,94.87866655
1703956766,396.1956046,-94.14394896,-16.12705307,111.7926838,-92.75481387,-16.64967526,95.0133967,-93.67507352,-7.663179265,94.94033134
1703956766,396.1972541,-94.1865992,-16.21991808,112.2913772,-92.75481387,-16.64967526,95.0133967,-93.53551741,-7.397259861,94.88331277
1703956766,396.198778,-94.26687345,-16.30642615,112.7391358,-92.75481387,-16.64967526,95.0133967,-93.32414792,-7.140416801,94.91244666
1703956766,396.2001758,-94.28901468,-16.3752882,113.1838447,-92.75481387,-16.64967526,95.0133967,-93.25504182,-6.910017636,94.8339427
1703956766,396.2014475,-94.41913682,-16.43096038,113.5542063,-92.75481387,-16.64967526,95.0133967,-92.96297205,-6.669879412,95.00765889
1703956766,396.2025933,-94.49133074,-16.4679516,113.937365,-92.75481387,-16.64967526,95.0133967,-92.81615333,-6.448109377,95.072485
1703956766,396.2036135,-94.55003463,-16.50792417,114.2957025,-92.75481387,-16.64967526,95.0133967,-92.68644764,-6.244656592,95.11444714
1703956766,396.2045085,-94.70204444,-16.53596189,114.5839411,-92.75481387,-16.64967526,95.0133967,-92.3310462,-6.03597088,95.40807649
1703956766,396.2052783,-94.83794784,-16.53222074,114.8803653,-92.75481387,-16.64967526,95.0133967,-92.04140738,-5.82962803,95.69910232
1703956766,396.2059234,-94.93393226,-16.54071938,115.1744217,-92.75481387,-16.64967526,95.0133967,-91.81842315,-5.641918063,95.89844162
1703956766,396.2064442,-95.11379353,-16.5345519,115.4050557,-92.75481387,-16.64967526,95.0133967,-91.36326615,-5.450019332,96.36086846
1703956766,396.2068417,-95.31064564,-16.52334652,115.6244658,-92.75481387,-16.64967526,95.0133967,-90.83152663,-5.256801458,96.90989223
1703956766,396.2071171,-95.48224366,-16.52146003,115.8421537,-92.75481387,-16.64967526,95.0133967,-90.32248293,-5.075764425,97.41715005
1703956766,396.2072723,-95.65229604,-16.52410022,116.0514174,-92.75481387,-16.64967526,95.0133967,-89.77459515,-4.900135043,97.95405251
1703956766,396.207309,-95.75886186,-16.50753642,116.3168796,-92.75481387,-16.64967526,95.0133967,-89.4235412,-4.722670404,98.33083207
1703956766,396.2072297,-95.84043361,-16.50257526,116.5697609,-92.75481387,-16.64967526,95.0133967,-89.1167642,-4.562355049,98.64024149
1703956766,396.2070367,-95.90797156,-16.4311699,116.8808487,-92.75481387,-16.64967526,95.0133967,-88.92475005,-4.376930301,98.96623468
1703956766,396.2067327,-96.16541956,-16.43826701,117.0478721,-92.75481387,-16.64967526,95.0133967,-87.88551597,-4.188126439,99.98500674
1703956766,396.2063207,-96.42429585,-16.48412684,117.1700066,-92.75481387,-16.64967526,95.0133967,-86.70667447,-4.023918173,101.0667438
1703956766,396.2058037,-96.73297491,-16.52082428,117.2626449,-92.75481387,-16.64967526,95.0133967,-85.23661146,-3.856250269,102.4584202
1703956766,396.2051852,-96.82787537,-16.5364305,117.4855635,-92.75481387,-16.64967526,95.0133967,-84.60584683,-3.708682167,103.0499941
1703956766,396.2044689,-97.01879001,-16.54257022,117.6250145,-92.75481387,-16.64967526,95.0133967,-83.52435248,-3.565659025,104.113043
1703956766,396.2036581,-97.14788231,-16.51699724,117.8163496,-92.75481387,-16.64967526,95.0133967,-82.68117988,-3.420486687,104.9997499
1703956766,396.2027563,-97.27558094,-16.51823734,117.9725347,-92.75481387,-16.64967526,95.0133967,-81.77402523,-3.295097773,105.8977867
1703956766,396.201767,-97.47622369,-16.51902596,118.0778165,-92.75481387,-16.64967526,95.0133967,-80.42700142,-3.168830534,107.2374588
1703956766,396.2006937,-97.65548675,-16.46829499,118.2330449,-92.75481387,-16.64967526,95.0133967,-79.09649518,-3.025411937,108.6618578
1703956766,396.1995399,-97.67925698,-16.44327541,118.4419357,-92.75481387,-16.64967526,95.0133967,-78.56703227,-2.913581238,109.233388
1703956766,396.1983092,-97.90132444,-16.45811876,118.4759169,-92.75481387,-16.64967526,95.0133967,-76.8837438,-2.819888115,110.882982
1703956766,396.1970057,-98.11209561,-16.41838699,118.5714588,-92.75481387,-16.64967526,95.0133967,-75.08698065,-2.700303103,112.7528512
1703956766,396.1956342,-98.14235864,-16.39644933,118.7696853,-92.75481387,-16.64967526,95.0133967,-74.28773698,-2.593942422,113.5878183
1703956766,396.1941997,-98.20491965,-16.39495242,118.8880137,-92.75481387,-16.64967526,95.0133967,-73.3745689,-2.516881213,114.4984528
1703956766,396.1927076,-98.35574936,-16.38651664,118.9858159,-92.75481387,-16.64967526,95.0133967,-71.67966914,-2.422239942,116.2041194
1703956766,396.1911629,-98.35165932,-16.37521612,119.1525636,-92.75481387,-16.64967526,95.0133967,-71.07519188,-2.344238629,116.8245681
1703956766,396.1895709,-98.44141882,-16.38511896,119.2393408,-92.75481387,-16.64967526,95.0133967,-69.80306175,-2.27686954,118.0719825
1703956766,396.187937,-98.67710663,-16.3686145,119.2490052,-92.75481387,-16.64967526,95.0133967,-67.31835651,-2.203414478,120.5854772
1703956766,396.1862664,-98.86890332,-16.38972751,119.2720541,-92.75481387,-16.64967526,95.0133967,-65.03907525,-2.141883311,122.8184896
1703956766,396.1845647,-98.89559676,-16.42798558,119.3686149,-92.75481387,-16.64967526,95.0133967,-64.10670745,-2.093593024,123.6698596
1703956766,396.1828376,-98.8490549,-16.40779684,119.5566401,-92.75481387,-16.64967526,95.0133967,-63.51613793,-2.020367794,124.2935781
1703956766,396.1810909,-98.96378707,-16.42896167,119.5981191,-92.75481387,-16.64967526,95.0133967,-61.77688379,-1.974985667,125.9867455
1703956766,396.1793308,-99.04648231,-16.44472676,119.6516229,-92.75481387,-16.64967526,95.0133967,-60.29899175,-1.933248422,127.4293534
1703956766,396.1775633,-99.14585291,-16.47717353,119.7051241,-92.75481387,-16.64967526,95.0133967,-58.5097853,-1.890177806,129.1496035
1703956766,396.1757944,-99.16041926,-16.49920327,119.8168968,-92.75481387,-16.64967526,95.0133967,-57.36147651,-1.841164084,130.2487302
1703956766,396.1740301,-99.14261759,-16.51411811,119.9469384,-92.75481387,-16.64967526,95.0133967,-56.4740751,-1.791261987,131.1009717
1703956766,396.1722756,-99.05127057,-16.48009884,120.1242196,-92.75481387,-16.64967526,95.0133967,-56.26726987,-1.733868176,131.3698314
1703956766,396.170536,-98.96699463,-16.48007975,120.2626022,-92.75481387,-16.64967526,95.0133967,-56.26885649,-1.693051641,131.364041
1703956766,396.1688157,-99.00471208,-16.4810724,120.3271202,-92.75481387,-16.64967526,95.0133967,-55.04453176,-1.659378594,132.5828159
1703956766,396.1671184,-99.06888422,-16.49151952,120.3890316,-92.75481387,-16.64967526,95.0133967,-53.35201225,-1.623421393,134.2504175
1703956766,396.1654476,-99.01631413,-16.52713965,120.5012452,-92.75481387,-16.64967526,95.0133967,-52.9973381,-1.589447728,134.5301967
1703956766,396.1638063,-99.01953254,-16.54949327,120.5848903,-92.75481387,-16.64967526,95.0133967,-51.9930164,-1.556948398,135.4861688
1703956766,396.1621975,-98.9967579,-16.56361917,120.6888018,-92.75481387,-16.64967526,95.0133967,-51.17931479,-1.520618187,136.2676752
1703956766,396.160624,-98.96156568,-16.575412,120.7918385,-92.75481387,-16.64967526,95.0133967,-50.56864276,-1.486638519,136.8511622
1703956766,396.1590881,-98.91978109,-16.58362445,120.9087935,-92.75481387,-16.64967526,95.0133967,-49.88032907,-1.448269634,137.5190414
1703956766,396.1575924,-98.89200644,-16.58532021,121.0201243,-92.75481387,-16.64967526,95.0133967,-48.96011601,-1.410008634,138.4317874
1703956766,396.1561388,-98.84801831,-16.58872747,121.138697,-92.75481387,-16.64967526,95.0133967,-48.2146644,-1.371591863,139.1664772
1703956766,396.1547292,-98.81262999,-16.58751599,121.2509766,-92.75481387,-16.64967526,95.0133967,-47.34102635,-1.334469015,140.03868
1703956766,396.1533655,-98.77977399,-16.58256773,121.3657328,-92.75481387,-16.64967526,95.0133967,-46.32628162,-1.29633476,141.0593257
1703956766,396.1520495,-98.74676286,-16.58250549,121.4713627,-92.75481387,-16.64967526,95.0133967,-45.39854003,-1.262098196,141.9836261
1703956766,396.1507829,-98.71894888,-16.58565211,121.5726509,-92.75481387,-16.64967526,95.0133967,-44.37266353,-1.229348559,142.9997229
1703956766,396.1495672,-98.6928197,-16.58810719,121.6742539,-92.75481387,-16.64967526,95.0133967,-43.24625609,-1.196722977,144.1177002
1703956766,396.1484038,-98.67927445,-16.59174068,121.7621474,-92.75481387,-16.64967526,95.0133967,-42.00246415,-1.168240378,145.3509506
1703956766,396.1472939,-98.66660099,-16.59310182,121.8471626,-92.75481387,-16.64967526,95.0133967,-40.73026907,-1.141124439,146.6172516
1703956767,396.1462391,-98.63777686,-16.59060737,121.9420127,-92.75481387,-16.64967526,95.0133967,-39.61376455,-1.112220357,147.7356342
1703956767,396.1452406,-98.59831175,-16.57936224,122.0469839,-92.75481387,-16.64967526,95.0133967,-38.50523529,-1.080819637,148.8634504
1703956767,396.1443,-98.5320918,-16.53085139,122.166651,-92.75481387,-16.64967526,95.0133967,-37.72137632,-1.045252855,149.7413105
1703956767,396.1434184,-98.3270558,-16.47440598,122.3622918,-92.75481387,-16.64967526,95.0133967,-39.11061688,-0.992371035,148.4631993
1703956767,396.1425965,-98.38135982,-16.4817975,122.4055913,-92.75481387,-16.64967526,95.0133967,-36.54246697,-0.977190032,151.0131677
1703956767,396.1418346,-98.58489356,-16.49410411,122.3529028,-92.75481387,-16.64967526,95.0133967,-31.89611789,-0.990454531,155.6307831
1703956767,396.1411331,-98.66492592,-16.54855643,122.3473439,-92.75481387,-16.64967526,95.0133967,-29.77170485,-0.995006144,157.6441443
1703956767,396.1404918,-98.6704128,-16.5743771,122.3841598,-92.75481387,-16.64967526,95.0133967,-28.70712858,-0.986914406,158.6554214
1703956767,396.139911,-98.67502805,-16.57294554,122.457876,-92.75481387,-16.64967526,95.0133967,-26.65936774,-0.970005428,160.7028404
1703956767,396.1393904,-98.69607378,-16.58067345,122.5015089,-92.75481387,-16.64967526,95.0133967,-24.88310706,-0.962078212,162.4611847
1703956767,396.1389295,-98.71084948,-16.60604686,122.5626095,-92.75481387,-16.64967526,95.0133967,-22.80213051,-0.951500765,164.4884415
1703956767,396.1385279,-98.70930161,-16.62824173,122.6417127,-92.75481387,-16.64967526,95.0133967,-20.64704214,-0.937134967,166.5959252
1703956767,396.1381847,-98.68290212,-16.64118477,122.7334682,-92.75481387,-16.64967526,95.0133967,-18.79204198,-0.918757916,168.4220913
1703956767,396.137899,-98.65868888,-16.65147762,122.8169067,-92.75481387,-16.64967526,95.0133967,-17.04614975,-0.902827388,170.1447415
1703956767,396.1376689,-98.6246519,-16.65623562,122.9066041,-92.75481387,-16.64967526,95.0133967,-15.33850788,-0.885320273,171.8402906
1703956767,396.1374926,-98.60123977,-16.65626135,122.9882515,-92.75481387,-16.64967526,95.0133967,-13.48428879,-0.871300482,173.6918768
1703956767,396.1373675,-98.58074202,-16.65469609,123.065776,-92.75481387,-16.64967526,95.0133967,-11.61310743,-0.859161881,175.5636932
1703956767,396.137291,-98.57333984,-16.64997335,123.1314301,-92.75481387,-16.64967526,95.0133967,-9.674310953,-0.851568003,177.5094867
1703956767,396.13726,-98.55615176,-16.64369983,123.2061522,-92.75481387,-16.64967526,95.0133967,-7.695082339,-0.842247078,179.4987843
1703956767,396.1372713,-98.54102865,-16.63572585,123.2810601,-92.75481387,-16.64967526,95.0133967,-5.601636656,-0.834431545,-178.3943704
1703956767,396.1373217,-98.52580309,-16.62707422,123.3561178,-92.75481387,-16.64967526,95.0133967,-3.468096227,-0.827739338,-176.2460676
1703956767,396.1374083,-98.51559246,-16.61981906,123.4275064,-92.75481387,-16.64967526,95.0133967,-1.284808939,-0.823598492,-174.0508279
1703956767,396.1375287,-98.493031,-16.61640829,123.5102011,-92.75481387,-16.64967526,95.0133967,0.947870876,-0.817287493,-171.8138853
1703956767,396.1376806,-98.48133855,-16.61716155,123.5832313,-92.75481387,-16.64967526,95.0133967,3.172566678,-0.815172964,-169.593236
1703956767,396.137862,-98.48282691,-16.6229099,123.649436,-92.75481387,-16.64967526,95.0133967,5.519385111,-0.818036639,-167.2606479
1703956767,396.1380708,-98.49205254,-16.63545936,123.7083296,-92.75481387,-16.64967526,95.0133967,7.785381513,-0.824217129,-165.0224653
1703956767,396.1383049,-98.50005599,-16.64779898,123.7700119,-92.75481387,-16.64967526,95.0133967,10.07884183,-0.831463564,-162.7564722
1703956767,396.1385623,-98.50390653,-16.65716725,123.8345104,-92.75481387,-16.64967526,95.0133967,12.32894762,-0.838851776,-160.5278579
1703956767,396.1388408,-98.51228378,-16.66429599,123.8948802,-92.75481387,-16.64967526,95.0133967,14.50811114,-0.848688247,-158.3657165
1703956767,396.1391383,-98.52014137,-16.67043746,123.9546659,-92.75481387,-16.64967526,95.0133967,16.60625277,-0.859445074,-156.282585
1703956767,396.1394532,-98.51545844,-16.65769645,124.0729184,-92.75481387,-16.64967526,95.0133967,20.23519598,-0.876368742,-152.6328184
1703956767,396.1397836,-98.38722485,-16.62721805,124.202432,-92.75481387,-16.64967526,95.0133967,21.80053627,-0.848185457,-151.0067805
1703956767,396.1401277,-98.33975442,-16.63260668,124.3178353,-92.75481387,-16.64967526,95.0133967,24.48742353,-0.850861621,-148.3333935
1703956767,396.140484,-98.40786364,-16.54945361,124.3662376,-92.75481387,-16.64967526,95.0133967,27.15845528,-0.892909231,-145.5008576
1703956767,396.1408509,-98.55348384,-16.55861126,124.3741327,-92.75481387,-16.64967526,95.0133967,29.51723937,-0.958462437,-143.1665635
1703956767,396.1412273,-98.50608308,-16.61590181,124.4232576,-92.75481387,-16.64967526,95.0133967,30.10583841,-0.947822336,-142.6925473
1703956767,396.1416115,-98.5626996,-16.61985493,124.447461,-92.75481387,-16.64967526,95.0133967,31.46182161,-0.97928195,-141.3477522
1703956767,396.142002,-98.65676082,-16.59516444,124.461929,-92.75481387,-16.64967526,95.0133967,32.94892782,-1.026621934,-139.8157275
1703956767,396.142397,-98.68053157,-16.59342476,124.4920007,-92.75481387,-16.64967526,95.0133967,33.90579275,-1.045838335,-138.8576037
1703956767,396.1427952,-98.64163415,-16.58668313,124.5758419,-92.75481387,-16.64967526,95.0133967,35.39271087,-1.051851065,-137.35909
1703956767,396.1431955,-98.73055577,-16.56609545,124.5761311,-92.75481387,-16.64967526,95.0133967,36.26058664,-1.094102239,-136.4537532
1703956767,396.143597,-98.78273747,-16.53264571,124.6072866,-92.75481387,-16.64967526,95.0133967,37.37719179,-1.129075239,-135.2737631
1703956767,396.1439984,-98.80967321,-16.50993316,124.64974,-92.75481387,-16.64967526,95.0133967,38.44318707,-1.155650978,-134.1652829
1703956767,396.1443988,-98.84689452,-16.48984326,124.6801283,-92.75481387,-16.64967526,95.0133967,39.30883991,-1.18360488,-133.2623166
1703956767,396.1447971,-98.87943459,-16.46566708,124.7160603,-92.75481387,-16.64967526,95.0133967,40.20257518,-1.211532822,-132.3231514
1703956767,396.1451923,-98.91161325,-16.43869324,124.7441405,-92.75481387,-16.64967526,95.0133967,40.91635715,-1.237108552,-131.5580091
1703956767,396.1455834,-98.9127171,-16.40824781,124.8327485,-92.75481387,-16.64967526,95.0133967,42.4335598,-1.268365335,-129.9837866
1703956767,396.1459699,-98.89452346,-16.38639304,124.8844784,-92.75481387,-16.64967526,95.0133967,43.18410061,-1.278050793,-129.1909975
1703956767,396.1463511,-98.91599639,-16.36192775,124.9072339,-92.75481387,-16.64967526,95.0133967,43.66051076,-1.297297718,-128.6675813
1703956767,396.146727,-98.95303605,-16.34444815,124.9227117,-92.75481387,-16.64967526,95.0133967,44.08498934,-1.321406534,-128.2104189
1703956767,396.1470969,-98.95835696,-16.33198426,124.9500998,-92.75481387,-16.64967526,95.0133967,44.52909217,-1.334120245,-127.7428088
1703956767,396.1474601,-98.97636831,-16.31975615,124.973539,-92.75481387,-16.64967526,95.0133967,44.96136467,-1.351709079,-127.2878797
1703956767,396.1478156,-98.99927809,-16.31510851,124.9952229,-92.75481387,-16.64967526,95.0133967,45.3781569,-1.370845477,-126.863721
1703956767,396.1481623,-99.02539517,-16.31960825,125.0116709,-92.75481387,-16.64967526,95.0133967,45.72286035,-1.38937088,-126.5298502
1703956767,396.1484995,-99.05551513,-16.329437,125.026503,-92.75481387,-16.64967526,95.0133967,46.05217324,-1.409107102,-126.2221282
1703956767,396.1488262,-99.08594776,-16.34225365,125.0414596,-92.75481387,-16.64967526,95.0133967,46.37594307,-1.428962918,-125.9259441
1703956767,396.1491417,-99.1031487,-16.33579648,125.0587365,-92.75481387,-16.64967526,95.0133967,46.67203655,-1.4439836,-125.6184456
1703956767,396.1494451,-98.92197152,-16.32539881,125.1825138,-92.75481387,-16.64967526,95.0133967,47.73440808,-1.400885027,-124.5326889
1703956767,396.1497357,-98.79538642,-16.32058462,125.2660833,-92.75481387,-16.64967526,95.0133967,48.47622633,-1.369892729,-123.7791818
1703956767,396.1500125,-99.00810357,-16.34456823,125.1671893,-92.75481387,-16.64967526,95.0133967,47.81012037,-1.436859402,-124.4984282
1703956767,396.1502743,-99.13503309,-16.40310545,125.1717714,-92.75481387,-16.64967526,95.0133967,48.26883649,-1.498779481,-124.1624973
1703956767,396.1505197,-99.17221444,-16.46538184,125.1488778,-92.75481387,-16.64967526,95.0133967,48.10360311,-1.505992558,-124.4528308
1703956767,396.1507471,-99.21477524,-16.4926073,125.1502585,-92.75481387,-16.64967526,95.0133967,48.25049162,-1.526392653,-124.3622889
1703956767,396.1509549,-99.2481743,-16.51129193,125.165385,-92.75481387,-16.64967526,95.0133967,48.53496646,-1.547774073,-124.117297
1703956767,396.1511418,-99.25607658,-16.5378115,125.2327843,-92.75481387,-16.64967526,95.0133967,49.37481632,-1.575978899,-123.3337838
1703956767,396.1513062,-99.26011278,-16.56324641,125.2610887,-92.75481387,-16.64967526,95.0133967,49.725598,-1.587655945,-123.0352707
1703956767,396.1514468,-99.2935359,-16.57988025,125.2714754,-92.75481387,-16.64967526,95.0133967,49.9259428,-1.607476539,-122.8701223
1703956767,396.1515617,-99.32202258,-16.58836691,125.2876883,-92.75481387,-16.64967526,95.0133967,50.17435207,-1.627443138,-122.6406695
1703956767,396.1516495,-99.31143081,-16.58599976,125.3285455,-92.75481387,-16.64967526,95.0133967,50.6106449,-1.63799213,-122.2009934
1703956767,396.1517085,-99.24087716,-16.57656681,125.4149217,-92.75481387,-16.64967526,95.0133967,51.43254424,-1.636851872,-121.3608946
1703956767,396.1517374,-99.2780295,-16.58155799,125.4213292,-92.75481387,-16.64967526,95.0133967,51.56569456,-1.657609951,-121.2396878
1703956767,396.1517349,-99.3035835,-16.58319869,125.4791572,-92.75481387,-16.64967526,95.0133967,52.21712803,-1.692957127,-120.5952678
1703956767,396.1516999,-99.33698884,-16.58883139,125.5264882,-92.75481387,-16.64967526,95.0133967,52.74792465,-1.728071705,-120.0793688
1703956767,396.1516316,-99.34952622,-16.58970252,125.5378554,-92.75481387,-16.64967526,95.0133967,52.87730588,-1.738796518,-119.9528123
1703956767,396.1515294,-99.36108036,-16.58644365,125.5981724,-92.75481387,-16.64967526,95.0133967,53.48067762,-1.76879115,-119.3461608
1703956767,396.1513932,-99.3651551,-16.58248827,125.611149,-92.75481387,-16.64967526,95.0133967,53.60750182,-1.776210101,-119.2122011
1703956767,396.1512232,-99.37227723,-16.57985471,125.6663485,-92.75481387,-16.64967526,95.0133967,54.13511624,-1.802129127,-118.6821293
1703956767,396.1510199,-99.38059138,-16.58011978,125.6730825,-92.75481387,-16.64967526,95.0133967,54.20447975,-1.808989091,-118.6139848
1703956767,396.1507839,-99.39969864,-16.58310283,125.7222163,-92.75481387,-16.64967526,95.0133967,54.6701064,-1.838329125,-118.1574212
1703956767,396.1505161,-99.43233118,-16.59636708,125.721323,-92.75481387,-16.64967526,95.0133967,54.6903734,-1.853637591,-118.1651523
1703956767,396.1502174,-99.46866356,-16.62705382,125.7226598,-92.75481387,-16.64967526,95.0133967,54.7428067,-1.870893767,-118.1758146
1703956767,396.149889,-99.51803911,-16.6672543,125.7191225,-92.75481387,-16.64967526,95.0133967,54.76455384,-1.892236582,-118.2365686
1703956767,396.149532,-99.56854134,-16.70789082,125.7670797,-92.75481387,-16.64967526,95.0133967,55.23066412,-1.935105404,-117.8562439
1703956767,396.1491476,-99.59554846,-16.73540166,125.7789696,-92.75481387,-16.64967526,95.0133967,55.35998066,-1.952163901,-117.7837333
1703956767,396.1487364,-99.54156879,-16.7282258,125.8856894,-92.75481387,-16.64967526,95.0133967,56.22612664,-1.969422775,-116.9055798
1703956767,396.1482993,-99.3094118,-16.70976264,126.0864504,-92.75481387,-16.64967526,95.0133967,57.83612089,-1.938139444,-115.256579
1703956767,396.1478364,-99.1761235,-16.6626031,126.1987319,-92.75481387,-16.64967526,95.0133967,58.72640704,-1.921454386,-114.2704954
1703956767,396.1473482,-99.3064616,-16.65709589,126.1701325,-92.75481387,-16.64967526,95.0133967,58.44708945,-1.97462866,-114.5439308
1703956767,396.1468346,-99.49312668,-16.74152562,126.0986248,-92.75481387,-16.64967526,95.0133967,57.91503825,-2.033455326,-115.2506305
1703956767,396.1462952,-99.60270047,-16.79979174,126.0622043,-92.75481387,-16.64967526,95.0133967,57.66269452,-2.070023849,-115.6230963
1703956767,396.1457295,-99.64156144,-16.84894037,126.092672,-92.75481387,-16.64967526,95.0133967,57.91895481,-2.09982602,-115.4683716
1703956767,396.145137,-99.63240103,-16.88929568,126.1469574,-92.75481387,-16.64967526,95.0133967,58.34962243,-2.116130562,-115.1204304
1703956767,396.1445176,-99.6283388,-16.92000517,126.2080919,-92.75481387,-16.64967526,95.0133967,58.81442674,-2.138433656,-114.7196349
1703956767,396.1438716,-99.6579201,-16.94300025,126.2573897,-92.75481387,-16.64967526,95.0133967,59.16548492,-2.172976361,-114.4182836
1703956767,396.143199,-99.67704488,-16.96252175,126.2692711,-92.75481387,-16.64967526,95.0133967,59.25371298,-2.186597712,-114.3705764
1703956767,396.1425002,-99.68256773,-16.96978823,126.321113,-92.75481387,-16.64967526,95.0133967,59.60991702,-2.211078829,-114.0315802
1703956767,396.1417754,-99.66314882,-16.96240969,126.3810673,-92.75481387,-16.64967526,95.0133967,60.01640817,-2.227414758,-113.6121517
1703956767,396.1410248,-99.62366408,-16.9445985,126.4613894,-92.75481387,-16.64967526,95.0133967,60.55471201,-2.243175779,-113.0399735
1703956767,396.1402487,-99.58077899,-16.91956871,126.5255064,-92.75481387,-16.64967526,95.0133967,60.97819278,-2.250806275,-112.5672402
1703956767,396.139447,-99.53775955,-16.89090245,126.6029207,-92.75481387,-16.64967526,95.0133967,61.47684709,-2.264497993,-112.0126398
1703956768,396.13862,-99.49816428,-16.86258501,126.6807128,-92.75481387,-16.64967526,95.0133967,61.96665816,-2.280246071,-111.4677418
1703956768,396.1377678,-99.45278381,-16.83535095,126.7658839,-92.75481387,-16.64967526,95.0133967,62.49950256,-2.296512103,-110.8819808
1703956768,396.1368909,-99.41304834,-16.81029329,126.7985245,-92.75481387,-16.64967526,95.0133967,62.71338146,-2.292469891,-110.6174236
1703956768,396.1359897,-99.38487527,-16.79532755,126.8668268,-92.75481387,-16.64967526,95.0133967,63.1290797,-2.309484765,-110.1734165
1703956768,396.1350648,-99.3678976,-16.78930883,126.928136,-92.75481387,-16.64967526,95.0133967,63.4930503,-2.328606086,-109.799279
1703956768,396.1341169,-99.22885332,-16.73417502,127.0459127,-92.75481387,-16.64967526,95.0133967,64.28711303,-2.315204306,-108.8928969
1703956768,396.133147,-99.19379758,-16.7346153,127.0668474,-92.75481387,-16.64967526,95.0133967,64.45735396,-2.307220759,-108.7225922
1703956768,396.1321558,-99.15334392,-16.72330811,127.1304428,-92.75481387,-16.64967526,95.0133967,64.85365834,-2.316414669,-108.3043199
1703956768,396.1311445,-99.02962849,-16.67698213,127.2053862,-92.75481387,-16.64967526,95.0133967,65.41037227,-2.291595638,-107.6516231
1703956768,396.1301143,-98.87497326,-16.65296182,127.2781792,-92.75481387,-16.64967526,95.0133967,66.05621972,-2.249637731,-106.9525202
1703956768,396.1290663,-98.802387,-16.64466401,127.3285703,-92.75481387,-16.64967526,95.0133967,66.45566901,-2.237314707,-106.5346725
1703956768,396.1280015,-98.84847322,-16.69709731,127.3673075,-92.75481387,-16.64967526,95.0133967,66.630525,-2.274943583,-106.4687623
1703956768,396.1269209,-98.98727107,-16.79258569,127.3742634,-92.75481387,-16.64967526,95.0133967,66.5106857,-2.341366061,-106.7873484
1703956768,396.1258251,-99.07965335,-16.89987248,127.4086391,-92.75481387,-16.64967526,95.0133967,66.63876723,-2.396780402,-106.8802665
1703956768,396.1247151,-99.10776955,-16.99846326,127.4716026,-92.75481387,-16.64967526,95.0133967,67.01782484,-2.434036503,-106.7025636
1703956768,396.1235914,-99.12120056,-17.07205314,127.538257,-92.75481387,-16.64967526,95.0133967,67.40414703,-2.467119914,-106.4669884
1703956768,396.1224546,-99.11570704,-17.13431474,127.6261761,-92.75481387,-16.64967526,95.0133967,67.90593745,-2.501319944,-106.0931785
1703956768,396.1213056,-99.10108797,-17.18440284,127.7158199,-92.75481387,-16.64967526,95.0133967,68.40905997,-2.532615916,-105.6932568
1703956768,396.1201452,-99.08821371,-17.21903496,127.8141397,-92.75481387,-16.64967526,95.0133967,68.91453024,-2.569737308,-105.2605605
1703956768,396.1189749,-99.06993739,-17.2378983,127.9229394,-92.75481387,-16.64967526,95.0133967,69.44143097,-2.610089882,-104.7750477
1703956768,396.1177968,-99.04171417,-17.24658399,128.0251781,-92.75481387,-16.64967526,95.0133967,69.93655932,-2.643301834,-104.3000794
1703956768,396.1166135,-99.00250837,-17.25264491,128.1335227,-92.75481387,-16.64967526,95.0133967,70.46677408,-2.674355535,-103.7843662
1703956768,396.1154272,-98.97102257,-17.25687381,128.2425732,-92.75481387,-16.64967526,95.0133967,70.96552368,-2.709794075,-103.2969045
1703956768,396.11424,-98.94574557,-17.24936688,128.3412777,-92.75481387,-16.64967526,95.0133967,71.38028841,-2.744220412,-102.869868
1703956768,396.1130536,-98.9265465,-17.23494531,128.4526339,-92.75481387,-16.64967526,95.0133967,71.801678,-2.788060545,-102.4232729
1703956768,396.1118692,-98.89520162,-17.23004978,128.5641379,-92.75481387,-16.64967526,95.0133967,72.25662398,-2.825759674,-101.9614031
1703956768,396.110688,-98.91123203,-17.23159067,128.6544656,-92.75481387,-16.64967526,95.0133967,72.51495342,-2.876035201,-101.7109951
1703956768,396.1095107,-98.91354587,-17.22521119,128.7702553,-92.75481387,-16.64967526,95.0133967,72.86807994,-2.932272713,-101.3502141
1703956768,396.1083379,-98.85379599,-17.19899525,128.9110541,-92.75481387,-16.64967526,95.0133967,73.41600426,-2.971883052,-100.7521665
1703956768,396.10717,-98.73442466,-17.17994193,129.1173171,-92.75481387,-16.64967526,95.0133967,74.30987903,-3.014212785,-99.82136117
1703956768,396.106007,-98.64167662,-17.16846108,129.319865,-92.75481387,-16.64967526,95.0133967,75.10302028,-3.067720998,-99.00775525
1703956768,396.1048485,-98.60041903,-17.16734546,129.4903924,-92.75481387,-16.64967526,95.0133967,75.65647572,-3.130163816,-98.45643082
1703956768,396.1036935,-98.52566347,-17.17452979,129.6621463,-92.75481387,-16.64967526,95.0133967,76.30427399,-3.177252007,-97.82510213
1703956768,396.1025407,-98.42420733,-17.14650242,129.860876,-92.75481387,-16.64967526,95.0133967,77.00826578,-3.227164922,-97.06639429
1703956768,396.1013886,-98.43508876,-17.17208453,130.0266662,-92.75481387,-16.64967526,95.0133967,77.38114553,-3.311203777,-96.75206382
1703956768,396.1002359,-98.51610207,-17.27798225,130.138339,-92.75481387,-16.64967526,95.0133967,77.57174824,-3.397448724,-96.78313712
1703956768,396.0990812,-98.73871278,-17.41037238,130.1836582,-92.75481387,-16.64967526,95.0133967,77.27150938,-3.516137119,-97.36519233
1703956768,396.0979237,-98.75141541,-17.5056134,130.3643176,-92.75481387,-16.64967526,95.0133967,77.77304687,-3.604152823,-97.06244485
1703956768,396.0967628,-98.71050421,-17.57362217,130.5574375,-92.75481387,-16.64967526,95.0133967,78.38296924,-3.674907235,-96.5936078
1703956768,396.0955983,-98.70169408,-17.62277641,130.7684417,-92.75481387,-16.64967526,95.0133967,78.88361035,-3.770533722,-96.19936869
1703956768,396.0944304,-98.67554553,-17.67514367,131.0080962,-92.75481387,-16.64967526,95.0133967,79.46714604,-3.872113067,-95.72854742
1703956768,396.0932591,-98.62564538,-17.7207592,131.2654101,-92.75481387,-16.64967526,95.0133967,80.10811938,-3.972057825,-95.18567277
1703956768,396.092085,-98.50355179,-17.74589691,131.5813947,-92.75481387,-16.64967526,95.0133967,80.97088593,-4.069283528,-94.37680675
1703956768,396.090909,-98.34932479,-17.7565302,131.9420268,-92.75481387,-16.64967526,95.0133967,81.91718319,-4.175500203,-93.45429414
1703956768,396.0897318,-98.20016165,-17.77446797,132.3016413,-92.75481387,-16.64967526,95.0133967,82.81671952,-4.284171666,-92.59292888
1703956768,396.0885539,-98.03568251,-17.79356547,132.6925776,-92.75481387,-16.64967526,95.0133967,83.75264009,-4.402398667,-91.69687703
1703956768,396.0873759,-97.86352888,-17.80117594,133.1091365,-92.75481387,-16.64967526,95.0133967,84.66313302,-4.53157378,-90.80296675
1703956768,396.0861981,-97.67920251,-17.78085578,133.557554,-92.75481387,-16.64967526,95.0133967,85.523611,-4.673640601,-89.90270617
1703956768,396.0850208,-97.35026076,-17.66424054,134.1281565,-92.75481387,-16.64967526,95.0133967,86.60964539,-4.819118801,-88.57534082
1703956768,396.0838439,-97.07064412,-17.60685021,134.6328684,-92.75481387,-16.64967526,95.0133967,87.56334964,-4.952213471,-87.49906648
1703956768,396.0826675,-96.87800084,-17.52819384,135.1873085,-92.75481387,-16.64967526,95.0133967,88.17696361,-5.149355328,-86.7290463
1703956768,396.0814912,-96.72005821,-17.49001362,135.7802169,-92.75481387,-16.64967526,95.0133967,88.7382822,-5.379445774,-86.09563002
1703956768,396.0803147,-96.6095416,-17.49660214,136.2461254,-92.75481387,-16.64967526,95.0133967,89.18878432,-5.5649833,-85.66209773
1703956768,396.0791375,-96.43247715,-17.49720009,136.7697026,-92.75481387,-16.64967526,95.0133967,89.78366507,-5.751947596,-85.06668489
1703956768,396.0779595,-96.32923723,-17.50211028,137.2799456,-92.75481387,-16.64967526,95.0133967,90.1587835,-5.963463516,-84.70607026
1703956768,396.0767809,-96.04022709,-17.53405898,137.9306642,-92.75481387,-16.64967526,95.0133967,91.0536523,-6.16761534,-83.86292087
1703956768,396.075602,-95.87449548,-17.60060594,138.5008002,-92.75481387,-16.64967526,95.0133967,91.66814312,-6.382407464,-83.37853058
1703956768,396.0744227,-95.85751683,-17.66097059,138.9465033,-92.75481387,-16.64967526,95.0133967,91.87531307,-6.596499036,-83.3017598
1703956768,396.073243,-95.85258653,-17.72304372,139.385863,-92.75481387,-16.64967526,95.0133967,92.05318739,-6.812325347,-83.25879609
1703956768,396.0720626,-95.8059985,-17.74671456,139.8279667,-92.75481387,-16.64967526,95.0133967,92.23254636,-7.013653243,-83.13310969
1703956768,396.0708819,-95.61129424,-17.71161802,140.3045636,-92.75481387,-16.64967526,95.0133967,92.59615578,-7.173741508,-82.68917545
1703956768,396.0697013,-95.52956726,-17.66926247,140.742669,-92.75481387,-16.64967526,95.0133967,92.67416279,-7.360678087,-82.52856404
1703956768,396.0685217,-95.42299633,-17.65386219,141.2916606,-92.75481387,-16.64967526,95.0133967,92.85702558,-7.592362685,-82.31598222
1703956768,396.0673437,-95.35370421,-17.72005179,141.7301684,-92.75481387,-16.64967526,95.0133967,93.14590651,-7.782110628,-82.16064826
1703956768,396.0661675,-95.29265166,-17.81372096,142.1181831,-92.75481387,-16.64967526,95.0133967,93.47810535,-7.949502979,-82.01590748
1703956768,396.0649931,-95.23767328,-17.8741434,142.4949315,-92.75481387,-16.64967526,95.0133967,93.71504415,-8.1145517,-81.90072018
1703956768,396.0638202,-95.25940904,-17.92332658,142.7637482,-92.75481387,-16.64967526,95.0133967,93.77483409,-8.256569097,-81.94789774
1703956768,396.0626487,-95.26081133,-17.93773122,143.037385,-92.75481387,-16.64967526,95.0133967,93.79377367,-8.393591738,-81.96440377
1703956768,396.0614782,-95.22776868,-17.93388169,143.3255208,-92.75481387,-16.64967526,95.0133967,93.83566238,-8.524498902,-81.91739588
1703956768,396.0603089,-95.17726211,-17.90790892,143.6151672,-92.75481387,-16.64967526,95.0133967,93.85703834,-8.649641913,-81.84459323
1703956768,396.0591402,-95.10838495,-17.86084079,143.9125872,-92.75481387,-16.64967526,95.0133967,93.86026424,-8.771738452,-81.74565033
1703956768,396.0579715,-95.03576151,-17.81383431,144.1995706,-92.75481387,-16.64967526,95.0133967,93.86766747,-8.887087421,-81.64172337
1703956768,396.0568012,-95.01622166,-17.77680979,144.445958,-92.75481387,-16.64967526,95.0133967,93.80184618,-9.003096788,-81.63727845
1703956768,396.0556277,-94.97723814,-17.74548919,144.6737978,-92.75481387,-16.64967526,95.0133967,93.78469367,-9.101964459,-81.59218933
1703956768,396.0544492,-94.93971879,-17.70297795,144.8745248,-92.75481387,-16.64967526,95.0133967,93.73924293,-9.188042723,-81.55278368
1703956768,396.053264,-94.90231549,-17.66794645,145.0486591,-92.75481387,-16.64967526,95.0133967,93.71173739,-9.260726795,-81.50958696
1703956768,396.0520702,-94.86458351,-17.65204939,145.2254619,-92.75481387,-16.64967526,95.0133967,93.72843991,-9.334277623,-81.45999073
1703956768,396.0508662,-94.83084359,-17.63225562,145.3990542,-92.75481387,-16.64967526,95.0133967,93.72847855,-9.407875551,-81.41981503
1703956768,396.0496507,-94.79154263,-17.60850935,145.5779408,-92.75481387,-16.64967526,95.0133967,93.72756507,-9.481952651,-81.37202945
1703956768,396.0484233,-94.72655424,-17.55881277,145.7892447,-92.75481387,-16.64967526,95.0133967,93.70582809,-9.562353121,-81.29063079
1703956768,396.0471839,-94.7600722,-17.39828518,145.9155527,-92.75481387,-16.64967526,95.0133967,93.26583204,-9.641374344,-81.42123984
1703956768,396.0459325,-94.66630014,-17.1962938,146.0683806,-92.75481387,-16.64967526,95.0133967,92.93684539,-9.683139556,-81.34063147
1703956768,396.044669,-94.63207047,-17.02952313,146.3675848,-92.75481387,-16.64967526,95.0133967,92.58113153,-9.821354725,-81.36854154
1703956768,396.0433931,-94.54495856,-16.97769259,146.6941066,-92.75481387,-16.64967526,95.0133967,92.57430143,-9.949984161,-81.26724282
1703956768,396.0421042,-94.48083562,-16.98105447,146.9013522,-92.75481387,-16.64967526,95.0133967,92.66673274,-10.02752242,-81.17630681
1703956768,396.0408017,-94.48861449,-17.02530963,147.0538791,-92.75481387,-16.64967526,95.0133967,92.74659069,-10.10627728,-81.18828441
1703956768,396.0394853,-94.51192531,-17.07543087,147.1444741,-92.75481387,-16.64967526,95.0133967,92.82097085,-10.16027831,-81.21835191
1703956768,396.0381544,-94.51381674,-17.12995523,147.2340008,-92.75481387,-16.64967526,95.0133967,92.93867738,-10.20502691,-81.21048532
1703956768,396.0368091,-94.53463275,-17.16128923,147.3244512,-92.75481387,-16.64967526,95.0133967,92.97325227,-10.25818491,-81.24292862
1703956768,396.035449,-94.52339527,-17.20693344,147.4526079,-92.75481387,-16.64967526,95.0133967,93.08741952,-10.31706697,-81.21987886
1703956768,396.034074,-94.506686,-17.26250828,147.5666036,-92.75481387,-16.64967526,95.0133967,93.23383449,-10.36655903,-81.18297837
1703956768,396.0326841,-94.44982514,-17.29278697,147.6854701,-92.75481387,-16.64967526,95.0133967,93.38166348,-10.40273387,-81.08850824
1703956768,396.0312798,-94.36757313,-17.29420448,147.8034763,-92.75481387,-16.64967526,95.0133967,93.50028422,-10.428713,-80.96221049
1703956768,396.0298618,-94.26513306,-17.28474609,147.9387285,-92.75481387,-16.64967526,95.0133967,93.62184118,-10.45539775,-80.80859349
1703956768,396.028431,-94.21309526,-17.29081323,148.0444571,-92.75481387,-16.64967526,95.0133967,93.70516005,-10.48736031,-80.73110995
1703956768,396.0269887,-94.20301274,-17.32552281,148.1070058,-92.75481387,-16.64967526,95.0133967,93.79584475,-10.51424938,-80.70847041
1703956768,396.0255358,-94.22197568,-17.36224995,148.1580084,-92.75481387,-16.64967526,95.0133967,93.84833834,-10.54693856,-80.73239946
1703956768,396.0240736,-94.25139353,-17.39128089,148.1971789,-92.75481387,-16.64967526,95.0133967,93.86820515,-10.57794795,-80.77524219
1703956768,396.0226033,-94.28437165,-17.41803352,148.2247578,-92.75481387,-16.64967526,95.0133967,93.87856401,-10.60459747,-80.82345958
1703956768,396.0211257,-94.32375455,-17.43971562,148.2510478,-92.75481387,-16.64967526,95.0133967,93.86771885,-10.63319841,-80.88391051
1703956769,396.0196419,-94.39001911,-17.4592341,148.2546927,-92.75481387,-16.64967526,95.0133967,93.81376094,-10.66122067,-80.98709365
1703956769,396.018153,-94.47443699,-17.48366263,148.2405418,-92.75481387,-16.64967526,95.0133967,93.74589482,-10.68754054,-81.11643794
1703956769,396.0166606,-94.58838559,-17.52137601,148.1992296,-92.75481387,-16.64967526,95.0133967,93.66718747,-10.71191391,-81.28701988
1703956769,396.0151662,-94.70338292,-17.56927002,148.1568258,-92.75481387,-16.64967526,95.0133967,93.61051114,-10.73600639,-81.45581658
1703956769,396.0136713,-94.833071,-17.61963361,148.114746,-92.75481387,-16.64967526,95.0133967,93.53782252,-10.76607203,-81.64790571
1703956769,396.0121768,-94.94041968,-17.66816994,148.0685365,-92.75481387,-16.64967526,95.0133967,93.49379854,-10.785134,-81.80404325
1703956769,396.0106837,-95.03196305,-17.70193524,148.0141034,-92.75481387,-16.64967526,95.0133967,93.43922567,-10.79399428,-81.93881558
1703956769,396.0091927,-95.11439641,-17.722673,147.9491812,-92.75481387,-16.64967526,95.0133967,93.3683644,-10.79420336,-82.06239812
1703956769,396.0077048,-95.1876407,-17.73360287,147.8783871,-92.75481387,-16.64967526,95.0133967,93.2884888,-10.78799799,-82.17395242
1703956769,396.0062212,-95.23897591,-17.74000726,147.8184147,-92.75481387,-16.64967526,95.0133967,93.22970229,-10.77851204,-82.25217559
1703956769,396.0047436,-95.27035121,-17.72733719,147.7612547,-92.75481387,-16.64967526,95.0133967,93.1565524,-10.76282334,-82.30388848
1703956769,396.0032735,-95.28972776,-17.68901156,147.7195062,-92.75481387,-16.64967526,95.0133967,93.0425158,-10.75057678,-82.34420405
1703956769,396.0018124,-95.28503756,-17.63533149,147.6942423,-92.75481387,-16.64967526,95.0133967,92.92842797,-10.73721813,-82.35076543
1703956769,396.0003617,-95.28764494,-17.56902096,147.6683549,-92.75481387,-16.64967526,95.0133967,92.77521091,-10.72677122,-82.37262872
1703956769,395.9989226,-95.29189945,-17.50008935,147.6527899,-92.75481387,-16.64967526,95.0133967,92.61355462,-10.72222127,-82.39826518
1703956769,395.9974966,-95.27493336,-17.43846973,147.6583248,-92.75481387,-16.64967526,95.0133967,92.49864002,-10.71946352,-82.38879039
1703956769,395.9960853,-95.23634028,-17.37688915,147.6875567,-92.75481387,-16.64967526,95.0133967,92.41430832,-10.71975231,-82.34600325
1703956769,395.9946899,-95.20007245,-17.31376216,147.7293761,-92.75481387,-16.64967526,95.0133967,92.32258598,-10.72727452,-82.3082524
1703956769,395.9933121,-95.16024704,-17.25273427,147.757072,-92.75481387,-16.64967526,95.0133967,92.24059841,-10.72621095,-82.26401713
1703956769,395.991953,-95.13441903,-17.19714708,147.7798008,-92.75481387,-16.64967526,95.0133967,92.15081737,-10.72821702,-82.24042865
1703956769,395.9906142,-95.12630295,-17.14881518,147.7819504,-92.75481387,-16.64967526,95.0133967,92.05261484,-10.72698882,-82.24188561
1703956769,395.9892969,-95.13502288,-17.10384588,147.7648999,-92.75481387,-16.64967526,95.0133967,91.93855547,-10.72296586,-82.26801089
1703956769,395.9880023,-95.14622192,-17.05880276,147.7334199,-92.75481387,-16.64967526,95.0133967,91.82113682,-10.71275994,-82.29736701
1703956769,395.9867314,-95.15746181,-17.01125281,147.6901784,-92.75481387,-16.64967526,95.0133967,91.69819725,-10.69676249,-82.32698601
1703956769,395.9854851,-95.18062968,-16.96295824,147.631113,-92.75481387,-16.64967526,95.0133967,91.55700266,-10.6777835,-82.37482481
1703956769,395.9842643,-95.21687416,-16.92067242,147.5676888,-92.75481387,-16.64967526,95.0133967,91.41107332,-10.66190074,-82.44115821
1703956769,395.9830699,-95.25867547,-16.88419228,147.5084171,-92.75481387,-16.64967526,95.0133967,91.27045719,-10.6502959,-82.51457719
1703956769,395.9819027,-95.2969625,-16.84912339,147.4532623,-92.75481387,-16.64967526,95.0133967,91.13796863,-10.63931504,-82.58218004
1703956769,395.9807635,-95.3267999,-16.81090097,147.3948365,-92.75481387,-16.64967526,95.0133967,91.01021107,-10.62332653,-82.63739244
1703956769,395.9796533,-95.34017066,-16.76922596,147.3564049,-92.75481387,-16.64967526,95.0133967,90.89761396,-10.61063823,-82.6685903
1703956769,395.9785728,-95.36189086,-16.72776018,147.3122171,-92.75481387,-16.64967526,95.0133967,90.77387383,-10.5985425,-82.71245053
1703956769,395.9775224,-95.3952344,-16.70463383,147.274504,-92.75481387,-16.64967526,95.0133967,90.67534417,-10.59407741,-82.76930117
